[
  { "id": 1, "name": "Phở Hòa Pasteur", "address": "123 Pasteur, Quận 1, TP. Hồ Chí Minh", "district": "District 1", "location": { "type": "Point", "coordinates": [106.6993, 10.7765] }, "cuisine": "Vietnamese", "rating": 4.6, "budget": 80000, "description": "Quán phở bò nổi tiếng lâu năm" },
  { "id": 2, "name": "Bánh Mì Phượng", "address": "65 Nguyễn Trãi, Quận 1, TP. Hồ Chí Minh", "district": "District 1", "location": { "type": "Point", "coordinates": [106.6938, 10.7721] }, "cuisine": "Street Food", "rating": 4.4, "budget": 60000, "description": "Bánh mì thịt nướng ngon nổi tiếng" },
  { "id": 3, "name": "Cà Phê Sữa Đá Ông Bầu", "address": "45 Nguyễn Đình Chiểu, Quận 3, TP. Hồ Chí Minh", "district": "District 3", "location": { "type": "Point", "coordinates": [106.6825, 10.7758] }, "cuisine": "Drinks", "rating": 4.3, "budget": 45000, "description": "Quán cà phê sữa đá truyền thống" },
  { "id": 4, "name": "Bún Chả Hương Liên", "address": "24 Lê Văn Sỹ, Quận 3, TP. Hồ Chí Minh", "district": "District 3", "location": { "type": "Point", "coordinates": [106.6789, 10.7821] }, "cuisine": "Vietnamese", "rating": 4.7, "budget": 100000, "description": "Bún chả nổi tiếng, từng tiếp Obama" },
  { "id": 5, "name": "Cơm Tấm Kiều Giang", "address": "268 Nguyễn Thị Minh Khai, Quận 3, TP. Hồ Chí Minh", "district": "District 3", "location": { "type": "Point", "coordinates": [106.6832, 10.7795] }, "cuisine": "Vietnamese", "rating": 4.4, "budget": 70000, "description": "Cơm tấm ngon, giá rẻ" },
  { "id": 6, "name": "Quán Ăn Ngon", "address": "18 Phan Bội Châu, Quận 1, TP. Hồ Chí Minh", "district": "District 1", "location": { "type": "Point", "coordinates": [106.6956, 10.7742] }, "cuisine": "Vietnamese", "rating": 4.3, "budget": 150000, "description": "Quán ăn Việt đa dạng món" },
  { "id": 7, "name": "Nhà Hàng Làng Nướng", "address": "15 Đinh Tiên Hoàng, Quận 1, TP. Hồ Chí Minh", "district": "District 1", "location": { "type": "Point", "coordinates": [106.7052, 10.7748] }, "cuisine": "Hotpot & BBQ", "rating": 4.1, "budget": 250000, "description": "Đồ nướng kiểu làng quê" },
  { "id": 8, "name": "Highlands Coffee", "address": "35 Nguyễn Huệ, Quận 1, TP. Hồ Chí Minh", "district": "District 1", "location": { "type": "Point", "coordinates": [106.7045, 10.7738] }, "cuisine": "Drinks", "rating": 4.0, "budget": 90000, "description": "Chuỗi cà phê lớn" },
  { "id": 9, "name": "The Coffee House", "address": "191 Nguyễn Thị Minh Khai, Quận 1, TP. Hồ Chí Minh", "district": "District 1", "location": { "type": "Point", "coordinates": [106.6921, 10.7754] }, "cuisine": "Drinks", "rating": 4.1, "budget": 80000, "description": "Chuỗi cà phê hiện đại" },
  { "id": 10, "name": "Trà Sữa Gong Cha", "address": "92 Nguyễn Thị Minh Khai, Quận 1, TP. Hồ Chí Minh", "district": "District 1", "location": { "type": "Point", "coordinates": [106.6918, 10.7769] }, "cuisine": "Drinks", "rating": 4.2, "budget": 65000, "description": "Trà sữa nổi tiếng" },
  { "id": 11, "name": "Bánh Xèo Út Tuyền", "address": "12 Nguyễn Cảnh Chân, Quận 1, TP. Hồ Chí Minh", "district": "District 1", "location": { "type": "Point", "coordinates": [106.6972, 10.7685] }, "cuisine": "Street Food", "rating": 4.5, "budget": 70000, "description": "Bánh xèo giòn ngon" },
  { "id": 12, "name": "Hủ Tiếu Nam Vang", "address": "85 Nguyễn Trãi, Quận 1, TP. Hồ Chí Minh", "district": "District 1", "location": { "type": "Point", "coordinates": [106.6925, 10.7718] }, "cuisine": "Vietnamese", "rating": 4.3, "budget": 75000, "description": "Hủ tiếu Nam Vang chuẩn vị" },
  { "id": 13, "name": "Lẩu Hải Sản Biển Đông", "address": "56 Nguyễn Thị Minh Khai, Quận 3, TP. Hồ Chí Minh", "district": "District 3", "location": { "type": "Point", "coordinates": [106.6841, 10.7792] }, "cuisine": "Seafood", "rating": 4.2, "budget": 350000, "description": "Lẩu hải sản tươi ngon" },
  { "id": 14, "name": "Quán Ốc Đêm Sài Gòn", "address": "28 Nguyễn Đình Chiểu, Quận 3, TP. Hồ Chí Minh", "district": "District 3", "location": { "type": "Point", "coordinates": [106.6819, 10.7775] }, "cuisine": "Seafood", "rating": 4.4, "budget": 200000, "description": "Ốc và hải sản tươi sống" },
  { "id": 15, "name": "Lẩu Bò Tứ Xuyên", "address": "102 Lê Văn Sỹ, Quận 3, TP. Hồ Chí Minh", "district": "District 3", "location": { "type": "Point", "coordinates": [106.6798, 10.7814] }, "cuisine": "Hotpot & BBQ", "rating": 4.3, "budget": 280000, "description": "Lẩu bò Tứ Xuyên cay nồng" },
  { "id": 16, "name": "Cà Phê Sữa Đá Bình Thạnh", "address": "156 Xô Viết Nghệ Tĩnh, Quận Bình Thạnh, TP. Hồ Chí Minh", "district": "Binh Thanh", "location": { "type": "Point", "coordinates": [106.7125, 10.8023] }, "cuisine": "Drinks", "rating": 4.2, "budget": 60000, "description": "Quán cà phê view đẹp ở Bình Thạnh" },
  { "id": 17, "name": "Lẩu Nướng Gò Vấp", "address": "45 Quang Trung, Quận Gò Vấp, TP. Hồ Chí Minh", "district": "Go Vap", "location": { "type": "Point", "coordinates": [106.6782, 10.8321] }, "cuisine": "Hotpot & BBQ", "rating": 4.1, "budget": 220000, "description": "Quán lẩu nướng đông khách ở Gò Vấp" }
]