[
  { "id": 1, "name": "Phở Hòa Pasteur", "address": "123 Pasteur, Quận 1", "district": "District 1", "location": { "type": "Point", "coordinates": [106.6993, 10.7765] }, "cuisine": "Vietnamese", "rating": 4.6, "budget": 80000, "description": "Quán phở bò nổi tiếng", "image": "" },
  { "id": 2, "name": "Bánh Mì Phượng", "address": "65 Nguyễn Trãi, Quận 1", "district": "District 1", "location": { "type": "Point", "coordinates": [106.6938, 10.7721] }, "cuisine": "Street Food", "rating": 4.4, "budget": 60000, "description": "Bánh mì thịt nướng ngon", "image": "" },
  { "id": 3, "name": "Highlands Coffee Nguyễn Huệ", "address": "35 Nguyễn Huệ, Quận 1", "district": "District 1", "location": { "type": "Point", "coordinates": [106.7045, 10.7738] }, "cuisine": "Drinks", "rating": 4.0, "budget": 90000, "description": "Chuỗi cà phê lớn", "image": "" },
  { "id": 4, "name": "Lẩu Bò Tứ Xuyên", "address": "102 Lê Văn Sỹ, Quận 1", "district": "District 1", "location": { "type": "Point", "coordinates": [106.6798, 10.7814] }, "cuisine": "Hotpot & BBQ", "rating": 4.3, "budget": 280000, "description": "Lẩu bò cay nồng", "image": "" },
  { "id": 5, "name": "KFC Nguyễn Trãi", "address": "178 Nguyễn Trãi, Quận 1", "district": "District 1", "location": { "type": "Point", "coordinates": [106.6920, 10.7705] }, "cuisine": "Fastfood", "rating": 3.8, "budget": 120000, "description": "Fastfood nổi tiếng", "image": "" },

  { "id": 6, "name": "Cơm Tấm Sài Gòn", "address": "45 Nguyễn Thị Định, Quận 2", "district": "District 2", "location": { "type": "Point", "coordinates": [106.7420, 10.7890] }, "cuisine": "Vietnamese", "rating": 4.2, "budget": 70000, "description": "Cơm tấm ngon", "image": "" },
  { "id": 7, "name": "Bánh Tráng Trộn Thủ Đức", "address": "12 Võ Văn Tần, Quận 2", "district": "District 2", "location": { "type": "Point", "coordinates": [106.7385, 10.7855] }, "cuisine": "Street Food", "rating": 4.1, "budget": 45000, "description": "Bánh tráng trộn nổi tiếng", "image": "" },
  { "id": 8, "name": "Lẩu Thái Lan Quận 2", "address": "89 Nguyễn Thị Định, Quận 2", "district": "District 2", "location": { "type": "Point", "coordinates": [106.7450, 10.7920] }, "cuisine": "Hotpot & BBQ", "rating": 4.0, "budget": 250000, "description": "Lẩu Thái chua cay", "image": "" },
  { "id": 9, "name": "The Coffee House Quận 2", "address": "56 Võ Văn Tần, Quận 2", "district": "District 2", "location": { "type": "Point", "coordinates": [106.7400, 10.7870] }, "cuisine": "Drinks", "rating": 4.1, "budget": 85000, "description": "Cà phê hiện đại", "image": "" },
  { "id": 10, "name": "Bánh Mì Ăn Sáng Quận 2", "address": "23 Nguyễn Thị Định, Quận 2", "district": "District 2", "location": { "type": "Point", "coordinates": [106.7435, 10.7905] }, "cuisine": "Breakfast", "rating": 4.3, "budget": 50000, "description": "Bánh mì nóng buổi sáng", "image": "" },

  { "id": 11, "name": "Bún Chả Hương Liên", "address": "24 Lê Văn Sỹ, Quận 3", "district": "District 3", "location": { "type": "Point", "coordinates": [106.6789, 10.7821] }, "cuisine": "Vietnamese", "rating": 4.7, "budget": 100000, "description": "Bún chả nổi tiếng", "image": "" },
  { "id": 12, "name": "Cơm Tấm Kiều Giang", "address": "268 Nguyễn Thị Minh Khai, Quận 3", "district": "District 3", "location": { "type": "Point", "coordinates": [106.6832, 10.7795] }, "cuisine": "Street Food", "rating": 4.4, "budget": 70000, "description": "Cơm tấm ngon", "image": "" },
  { "id": 13, "name": "Lẩu Hải Sản Biển Đông", "address": "56 Nguyễn Thị Minh Khai, Quận 3", "district": "District 3", "location": { "type": "Point", "coordinates": [106.6841, 10.7792] }, "cuisine": "Seafood", "rating": 4.2, "budget": 350000, "description": "Lẩu hải sản tươi", "image": "" },
  { "id": 14, "name": "The Coffee House Quận 3", "address": "191 Nguyễn Thị Minh Khai, Quận 3", "district": "District 3", "location": { "type": "Point", "coordinates": [106.6921, 10.7754] }, "cuisine": "Drinks", "rating": 4.1, "budget": 80000, "description": "Cà phê hiện đại", "image": "" },
  { "id": 15, "name": "McDonald's Lê Văn Sỹ", "address": "45 Lê Văn Sỹ, Quận 3", "district": "District 3", "location": { "type": "Point", "coordinates": [106.6775, 10.7835] }, "cuisine": "Fastfood", "rating": 3.9, "budget": 130000, "description": "Fastfood quốc tế", "image": "" },

  { "id": 16, "name": "Hủ Tiếu Nam Vang Quận 4", "address": "85 Nguyễn Tất Thành, Quận 4", "district": "District 4", "location": { "type": "Point", "coordinates": [106.7050, 10.7600] }, "cuisine": "Vietnamese", "rating": 4.3, "budget": 65000, "description": "Hủ tiếu Nam Vang", "image": "" },
  { "id": 17, "name": "Bánh Mì Hội An Quận 4", "address": "12 Tôn Đản, Quận 4", "district": "District 4", "location": { "type": "Point", "coordinates": [106.7020, 10.7585] }, "cuisine": "Street Food", "rating": 4.2, "budget": 48000, "description": "Bánh mì ngon", "image": "" },
  { "id": 18, "name": "Lẩu Bò Quận 4", "address": "56 Tôn Đản, Quận 4", "district": "District 4", "location": { "type": "Point", "coordinates": [106.7080, 10.7620] }, "cuisine": "Hotpot & BBQ", "rating": 4.0, "budget": 240000, "description": "Lẩu bò", "image": "" },
  { "id": 19, "name": "Cà Phê Sữa Đá Quận 4", "address": "89 Tôn Đản, Quận 4", "district": "District 4", "location": { "type": "Point", "coordinates": [106.7045, 10.7595] }, "cuisine": "Drinks", "rating": 4.1, "budget": 55000, "description": "Cà phê truyền thống", "image": "" },
  { "id": 20, "name": "Bánh Mì Ăn Sáng Quận 4", "address": "23 Tôn Đản, Quận 4", "district": "District 4", "location": { "type": "Point", "coordinates": [106.7010, 10.7575] }, "cuisine": "Breakfast", "rating": 4.3, "budget": 45000, "description": "Bánh mì buổi sáng", "image": "" },

  { "id": 21, "name": "Phở Quỳnh Quận 5", "address": "310 Nguyễn Trãi, Quận 5", "district": "District 5", "location": { "type": "Point", "coordinates": [106.6700, 10.7550] }, "cuisine": "Vietnamese", "rating": 4.5, "budget": 75000, "description": "Phở lâu đời", "image": "" },
  { "id": 22, "name": "Bánh Tráng Trộn Quận 5", "address": "45 Bùi Thị Xuân, Quận 5", "district": "District 5", "location": { "type": "Point", "coordinates": [106.6725, 10.7570] }, "cuisine": "Street Food", "rating": 4.2, "budget": 40000, "description": "Bánh tráng trộn", "image": "" },
  { "id": 23, "name": "Lẩu Thái Quận 5", "address": "89 Bùi Thị Xuân, Quận 5", "district": "District 5", "location": { "type": "Point", "coordinates": [106.6750, 10.7590] }, "cuisine": "Hotpot & BBQ", "rating": 4.1, "budget": 250000, "description": "Lẩu Thái", "image": "" },
  { "id": 24, "name": "Highlands Coffee Quận 5", "address": "150 Bùi Thị Xuân, Quận 5", "district": "District 5", "location": { "type": "Point", "coordinates": [106.6680, 10.7540] }, "cuisine": "Drinks", "rating": 4.0, "budget": 85000, "description": "Cà phê lớn", "image": "" },
  { "id": 25, "name": "Bánh Mì Ăn Sáng Quận 5", "address": "22 Bùi Thị Xuân, Quận 5", "district": "District 5", "location": { "type": "Point", "coordinates": [106.6710, 10.7560] }, "cuisine": "Breakfast", "rating": 4.3, "budget": 48000, "description": "Bánh mì nóng", "image": "" },

  { "id": 26, "name": "Hủ Tiếu Nam Vang Quận 6", "address": "85 Hậu Giang, Quận 6", "district": "District 6", "location": { "type": "Point", "coordinates": [106.6350, 10.7450] }, "cuisine": "Vietnamese", "rating": 4.3, "budget": 65000, "description": "Hủ tiếu Nam Vang", "image": "" },
  { "id": 27, "name": "Bánh Mì Hội An Quận 6", "address": "12 Hậu Giang, Quận 6", "district": "District 6", "location": { "type": "Point", "coordinates": [106.6375, 10.7470] }, "cuisine": "Street Food", "rating": 4.2, "budget": 48000, "description": "Bánh mì ngon", "image": "" },
  { "id": 28, "name": "Lẩu Bò Quận 6", "address": "56 Hậu Giang, Quận 6", "district": "District 6", "location": { "type": "Point", "coordinates": [106.6400, 10.7490] }, "cuisine": "Hotpot & BBQ", "rating": 4.0, "budget": 240000, "description": "Lẩu bò", "image": "" },
  { "id": 29, "name": "Cà Phê Sữa Đá Quận 6", "address": "89 Hậu Giang, Quận 6", "district": "District 6", "location": { "type": "Point", "coordinates": [106.6330, 10.7440] }, "cuisine": "Drinks", "rating": 4.1, "budget": 55000, "description": "Cà phê truyền thống", "image": "" },
  { "id": 30, "name": "Bánh Mì Ăn Sáng Quận 6", "address": "23 Hậu Giang, Quận 6", "district": "District 6", "location": { "type": "Point", "coordinates": [106.6360, 10.7460] }, "cuisine": "Breakfast", "rating": 4.3, "budget": 45000, "description": "Bánh mì buổi sáng", "image": "" },

  { "id": 31, "name": "Cơm Tấm Quận 7", "address": "45 Nguyễn Thị Thập, Quận 7", "district": "District 7", "location": { "type": "Point", "coordinates": [106.7200, 10.7300] }, "cuisine": "Vietnamese", "rating": 4.2, "budget": 70000, "description": "Cơm tấm ngon", "image": "" },
  { "id": 32, "name": "Bánh Tráng Trộn Quận 7", "address": "12 Nguyễn Thị Thập, Quận 7", "district": "District 7", "location": { "type": "Point", "coordinates": [106.7175, 10.7285] }, "cuisine": "Street Food", "rating": 4.1, "budget": 45000, "description": "Bánh tráng trộn", "image": "" },
  { "id": 33, "name": "Lẩu Thái Quận 7", "address": "89 Nguyễn Thị Thập, Quận 7", "district": "District 7", "location": { "type": "Point", "coordinates": [106.7225, 10.7315] }, "cuisine": "Hotpot & BBQ", "rating": 4.0, "budget": 250000, "description": "Lẩu Thái", "image": "" },
  { "id": 34, "name": "The Coffee House Quận 7", "address": "56 Nguyễn Thị Thập, Quận 7", "district": "District 7", "location": { "type": "Point", "coordinates": [106.7185, 10.7295] }, "cuisine": "Drinks", "rating": 4.1, "budget": 85000, "description": "Cà phê hiện đại", "image": "" },
  { "id": 35, "name": "Bánh Mì Ăn Sáng Quận 7", "address": "23 Nguyễn Thị Thập, Quận 7", "district": "District 7", "location": { "type": "Point", "coordinates": [106.7160, 10.7275] }, "cuisine": "Breakfast", "rating": 4.3, "budget": 50000, "description": "Bánh mì nóng", "image": "" },

  { "id": 36, "name": "Phở Quỳnh Quận 8", "address": "310 Nguyễn Văn Linh, Quận 8", "district": "District 8", "location": { "type": "Point", "coordinates": [106.6650, 10.7400] }, "cuisine": "Vietnamese", "rating": 4.4, "budget": 70000, "description": "Phở lâu đời", "image": "" },
  { "id": 37, "name": "Bánh Mì Hội An Quận 8", "address": "45 Nguyễn Văn Linh, Quận 8", "district": "District 8", "location": { "type": "Point", "coordinates": [106.6675, 10.7420] }, "cuisine": "Street Food", "rating": 4.2, "budget": 48000, "description": "Bánh mì ngon", "image": "" },
  { "id": 38, "name": "Lẩu Bò Quận 8", "address": "89 Nguyễn Văn Linh, Quận 8", "district": "District 8", "location": { "type": "Point", "coordinates": [106.6700, 10.7440] }, "cuisine": "Hotpot & BBQ", "rating": 4.0, "budget": 240000, "description": "Lẩu bò", "image": "" },
  { "id": 39, "name": "Cà Phê Sữa Đá Quận 8", "address": "12 Nguyễn Văn Linh, Quận 8", "district": "District 8", "location": { "type": "Point", "coordinates": [106.6630, 10.7390] }, "cuisine": "Drinks", "rating": 4.1, "budget": 55000, "description": "Cà phê truyền thống", "image": "" },
  { "id": 40, "name": "Bánh Mì Ăn Sáng Quận 8", "address": "56 Nguyễn Văn Linh, Quận 8", "district": "District 8", "location": { "type": "Point", "coordinates": [106.6685, 10.7430] }, "cuisine": "Breakfast", "rating": 4.3, "budget": 45000, "description": "Bánh mì buổi sáng", "image": "" },

  { "id": 41, "name": "Bún Bò Huế Quận 10", "address": "45 Sư Vạn Hạnh, Quận 10", "district": "District 10", "location": { "type": "Point", "coordinates": [106.6650, 10.7700] }, "cuisine": "Vietnamese", "rating": 4.3, "budget": 80000, "description": "Bún bò Huế chuẩn", "image": "" },
  { "id": 42, "name": "Bánh Tráng Trộn Quận 10", "address": "12 Sư Vạn Hạnh, Quận 10", "district": "District 10", "location": { "type": "Point", "coordinates": [106.6625, 10.7685] }, "cuisine": "Street Food", "rating": 4.2, "budget": 45000, "description": "Bánh tráng trộn", "image": "" },
  { "id": 43, "name": "Lẩu Thái Quận 10", "address": "89 Sư Vạn Hạnh, Quận 10", "district": "District 10", "location": { "type": "Point", "coordinates": [106.6675, 10.7715] }, "cuisine": "Hotpot & BBQ", "rating": 4.0, "budget": 250000, "description": "Lẩu Thái", "image": "" },
  { "id": 44, "name": "Highlands Coffee Quận 10", "address": "150 Sư Vạn Hạnh, Quận 10", "district": "District 10", "location": { "type": "Point", "coordinates": [106.6600, 10.7670] }, "cuisine": "Drinks", "rating": 4.1, "budget": 85000, "description": "Cà phê lớn", "image": "" },
  { "id": 45, "name": "Bánh Mì Ăn Sáng Quận 10", "address": "23 Sư Vạn Hạnh, Quận 10", "district": "District 10", "location": { "type": "Point", "coordinates": [106.6635, 10.7690] }, "cuisine": "Breakfast", "rating": 4.3, "budget": 50000, "description": "Bánh mì nóng", "image": "" },

  { "id": 46, "name": "Phở Quỳnh Quận 11", "address": "310 Lạc Long Quân, Quận 11", "district": "District 11", "location": { "type": "Point", "coordinates": [106.6450, 10.7650] }, "cuisine": "Vietnamese", "rating": 4.4, "budget": 70000, "description": "Phở lâu đời", "image": "" },
  { "id": 47, "name": "Bánh Mì Hội An Quận 11", "address": "45 Lạc Long Quân, Quận 11", "district": "District 11", "location": { "type": "Point", "coordinates": [106.6475, 10.7670] }, "cuisine": "Street Food", "rating": 4.2, "budget": 48000, "description": "Bánh mì ngon", "image": "" },
  { "id": 48, "name": "Lẩu Bò Quận 11", "address": "89 Lạc Long Quân, Quận 11", "district": "District 11", "location": { "type": "Point", "coordinates": [106.6500, 10.7690] }, "cuisine": "Hotpot & BBQ", "rating": 4.0, "budget": 240000, "description": "Lẩu bò", "image": "" },
  { "id": 49, "name": "Cà Phê Sữa Đá Quận 11", "address": "12 Lạc Long Quân, Quận 11", "district": "District 11", "location": { "type": "Point", "coordinates": [106.6430, 10.7640] }, "cuisine": "Drinks", "rating": 4.1, "budget": 55000, "description": "Cà phê truyền thống", "image": "" },
  { "id": 50, "name": "Bánh Mì Ăn Sáng Quận 11", "address": "56 Lạc Long Quân, Quận 11", "district": "District 11", "location": { "type": "Point", "coordinates": [106.6485, 10.7680] }, "cuisine": "Breakfast", "rating": 4.3, "budget": 45000, "description": "Bánh mì buổi sáng", "image": "" },

  { "id": 51, "name": "Cơm Tấm Quận 12", "address": "45 Quốc Lộ 1A, Quận 12", "district": "District 12", "location": { "type": "Point", "coordinates": [106.6250, 10.8500] }, "cuisine": "Vietnamese", "rating": 4.2, "budget": 65000, "description": "Cơm tấm ngon", "image": "" },
  { "id": 52, "name": "Bánh Tráng Trộn Quận 12", "address": "12 Quốc Lộ 1A, Quận 12", "district": "District 12", "location": { "type": "Point", "coordinates": [106.6225, 10.8485] }, "cuisine": "Street Food", "rating": 4.1, "budget": 40000, "description": "Bánh tráng trộn", "image": "" },
  { "id": 53, "name": "Lẩu Thái Quận 12", "address": "89 Quốc Lộ 1A, Quận 12", "district": "District 12", "location": { "type": "Point", "coordinates": [106.6275, 10.8515] }, "cuisine": "Hotpot & BBQ", "rating": 4.0, "budget": 240000, "description": "Lẩu Thái", "image": "" },
  { "id": 54, "name": "Highlands Coffee Quận 12", "address": "150 Quốc Lộ 1A, Quận 12", "district": "District 12", "location": { "type": "Point", "coordinates": [106.6200, 10.8470] }, "cuisine": "Drinks", "rating": 4.1, "budget": 80000, "description": "Cà phê lớn", "image": "" },
  { "id": 55, "name": "Bánh Mì Ăn Sáng Quận 12", "address": "23 Quốc Lộ 1A, Quận 12", "district": "District 12", "location": { "type": "Point", "coordinates": [106.6235, 10.8490] }, "cuisine": "Breakfast", "rating": 4.3, "budget": 45000, "description": "Bánh mì nóng", "image": "" },

  { "id": 56, "name": "Cà Phê Sữa Đá Bình Thạnh", "address": "156 Xô Viết Nghệ Tĩnh, Quận Bình Thạnh", "district": "Binh Thanh", "location": { "type": "Point", "coordinates": [106.7125, 10.8023] }, "cuisine": "Drinks", "rating": 4.2, "budget": 60000, "description": "Cà phê view đẹp", "image": "" },
  { "id": 57, "name": "Bánh Xèo Út Tuyền", "address": "12 Nguyễn Cảnh Chân, Quận Bình Thạnh", "district": "Binh Thanh", "location": { "type": "Point", "coordinates": [106.6972, 10.7685] }, "cuisine": "Street Food", "rating": 4.5, "budget": 70000, "description": "Bánh xèo giòn ngon", "image": "" },
  { "id": 58, "name": "Quán Ốc Đêm Sài Gòn", "address": "28 Nguyễn Đình Chiểu, Quận Bình Thạnh", "district": "Binh Thanh", "location": { "type": "Point", "coordinates": [106.6819, 10.7775] }, "cuisine": "Seafood", "rating": 4.4, "budget": 200000, "description": "Ốc và hải sản tươi", "image": "" },
  { "id": 59, "name": "Bún Bò Huế O Trang", "address": "89 Xô Viết Nghệ Tĩnh, Quận Bình Thạnh", "district": "Binh Thanh", "location": { "type": "Point", "coordinates": [106.7150, 10.8055] }, "cuisine": "Vietnamese", "rating": 4.3, "budget": 85000, "description": "Bún bò Huế chuẩn", "image": "" },
  { "id": 60, "name": "Bánh Mì Ăn Sáng Bình Thạnh", "address": "45 Nguyễn Xiển, Quận Bình Thạnh", "district": "Binh Thanh", "location": { "type": "Point", "coordinates": [106.7088, 10.7985] }, "cuisine": "Breakfast", "rating": 4.1, "budget": 45000, "description": "Bánh mì nóng giòn", "image": "" },

  { "id": 61, "name": "Bún Bò Nam Bộ", "address": "45 Phan Xích Long, Quận Phú Nhuận", "district": "Phu Nhuan", "location": { "type": "Point", "coordinates": [106.6850, 10.7950] }, "cuisine": "Vietnamese", "rating": 4.4, "budget": 80000, "description": "Bún bò Nam Bộ ngon", "image": "" },
  { "id": 62, "name": "Ốc Đêm Phú Nhuận", "address": "120 Phan Xích Long, Quận Phú Nhuận", "district": "Phu Nhuan", "location": { "type": "Point", "coordinates": [106.6885, 10.7980] }, "cuisine": "Seafood", "rating": 4.1, "budget": 180000, "description": "Ốc và hải sản tươi", "image": "" },
  { "id": 63, "name": "Cà Phê Sữa Đá 123", "address": "89 Phan Đình Phùng, Quận Phú Nhuận", "district": "Phu Nhuan", "location": { "type": "Point", "coordinates": [106.6820, 10.7925] }, "cuisine": "Drinks", "rating": 4.0, "budget": 55000, "description": "Quán cà phê truyền thống", "image": "" },
  { "id": 64, "name": "Lẩu Nướng Hàn Quốc", "address": "56 Phan Xích Long, Quận Phú Nhuận", "district": "Phu Nhuan", "location": { "type": "Point", "coordinates": [106.6865, 10.7965] }, "cuisine": "Hotpot & BBQ", "rating": 4.2, "budget": 260000, "description": "Lẩu nướng Hàn Quốc", "image": "" },
  { "id": 65, "name": "Bánh Mì Ăn Sáng Phú Nhuận", "address": "33 Phan Đình Phùng, Quận Phú Nhuận", "district": "Phu Nhuan", "location": { "type": "Point", "coordinates": [106.6805, 10.7900] }, "cuisine": "Breakfast", "rating": 4.3, "budget": 48000, "description": "Bánh mì nóng hổi", "image": "" },

  { "id": 66, "name": "Phở Quỳnh Tân Bình", "address": "310 Nguyễn Trãi, Quận Tân Bình", "district": "Tan Binh", "location": { "type": "Point", "coordinates": [106.6505, 10.7608] }, "cuisine": "Vietnamese", "rating": 4.5, "budget": 75000, "description": "Phở lâu đời", "image": "" },
  { "id": 67, "name": "Bánh Tráng Trộn Tân Bình", "address": "45 Bùi Thị Xuân, Quận Tân Bình", "district": "Tan Binh", "location": { "type": "Point", "coordinates": [106.6550, 10.7655] }, "cuisine": "Street Food", "rating": 4.2, "budget": 40000, "description": "Bánh tráng trộn ngon", "image": "" },
  { "id": 68, "name": "Lẩu Thái Tân Bình", "address": "89 Hoàng Văn Thụ, Quận Tân Bình", "district": "Tan Binh", "location": { "type": "Point", "coordinates": [106.6620, 10.7700] }, "cuisine": "Hotpot & BBQ", "rating": 4.0, "budget": 250000, "description": "Lẩu Thái chua cay", "image": "" },
  { "id": 69, "name": "Highlands Coffee Tân Bình", "address": "150 Hoàng Văn Thụ, Quận Tân Bình", "district": "Tan Binh", "location": { "type": "Point", "coordinates": [106.6585, 10.7680] }, "cuisine": "Drinks", "rating": 4.1, "budget": 85000, "description": "Chuỗi cà phê lớn", "image": "" },
  { "id": 70, "name": "Bánh Mì Ăn Sáng Tân Bình", "address": "22 Bùi Thị Xuân, Quận Tân Bình", "district": "Tan Binh", "location": { "type": "Point", "coordinates": [106.6520, 10.7625] }, "cuisine": "Breakfast", "rating": 4.3, "budget": 50000, "description": "Bánh mì nóng giòn", "image": "" },

  { "id": 71, "name": "Cơm Tấm Tân Phú", "address": "45 Tân Kỳ Tân Quý, Quận Tân Phú", "district": "Tan Phu", "location": { "type": "Point", "coordinates": [106.6250, 10.7850] }, "cuisine": "Vietnamese", "rating": 4.2, "budget": 65000, "description": "Cơm tấm ngon", "image": "" },
  { "id": 72, "name": "Bánh Tráng Trộn Tân Phú", "address": "12 Tân Kỳ Tân Quý, Quận Tân Phú", "district": "Tan Phu", "location": { "type": "Point", "coordinates": [106.6225, 10.7835] }, "cuisine": "Street Food", "rating": 4.1, "budget": 40000, "description": "Bánh tráng trộn", "image": "" },
  { "id": 73, "name": "Lẩu Bò Tân Phú", "address": "89 Tân Kỳ Tân Quý, Quận Tân Phú", "district": "Tan Phu", "location": { "type": "Point", "coordinates": [106.6275, 10.7865] }, "cuisine": "Hotpot & BBQ", "rating": 4.0, "budget": 240000, "description": "Lẩu bò", "image": "" },
  { "id": 74, "name": "Cà Phê Sữa Đá Tân Phú", "address": "150 Tân Kỳ Tân Quý, Quận Tân Phú", "district": "Tan Phu", "location": { "type": "Point", "coordinates": [106.6200, 10.7820] }, "cuisine": "Drinks", "rating": 4.1, "budget": 55000, "description": "Cà phê truyền thống", "image": "" },
  { "id": 75, "name": "Bánh Mì Ăn Sáng Tân Phú", "address": "23 Tân Kỳ Tân Quý, Quận Tân Phú", "district": "Tan Phu", "location": { "type": "Point", "coordinates": [106.6235, 10.7845] }, "cuisine": "Breakfast", "rating": 4.3, "budget": 45000, "description": "Bánh mì nóng", "image": "" },

  { "id": 76, "name": "Lẩu Nướng Gò Vấp", "address": "45 Quang Trung, Quận Gò Vấp", "district": "Go Vap", "location": { "type": "Point", "coordinates": [106.6782, 10.8321] }, "cuisine": "Hotpot & BBQ", "rating": 4.1, "budget": 220000, "description": "Quán lẩu nướng đông khách", "image": "" },
  { "id": 77, "name": "Cơm Tấm Ba Ghiền", "address": "112 Quang Trung, Quận Gò Vấp", "district": "Go Vap", "location": { "type": "Point", "coordinates": [106.6755, 10.8350] }, "cuisine": "Vietnamese", "rating": 4.3, "budget": 65000, "description": "Cơm tấm ngon, giá rẻ", "image": "" },
  { "id": 78, "name": "Trà Sữa Gong Cha Gò Vấp", "address": "78 Quang Trung, Quận Gò Vấp", "district": "Go Vap", "location": { "type": "Point", "coordinates": [106.6801, 10.8298] }, "cuisine": "Drinks", "rating": 4.0, "budget": 55000, "description": "Trà sữa nổi tiếng", "image": "" },
  { "id": 79, "name": "Bánh Mì Huynh Hoa", "address": "26 Nguyễn Oanh, Quận Gò Vấp", "district": "Go Vap", "location": { "type": "Point", "coordinates": [106.6720, 10.8385] }, "cuisine": "Street Food", "rating": 4.6, "budget": 50000, "description": "Bánh mì nổi tiếng Sài Gòn", "image": "" },
  { "id": 80, "name": "Pizza Hut Gò Vấp", "address": "190 Quang Trung, Quận Gò Vấp", "district": "Go Vap", "location": { "type": "Point", "coordinates": [106.6835, 10.8250] }, "cuisine": "Fastfood", "rating": 3.7, "budget": 180000, "description": "Pizza phong cách Mỹ", "image": "" },

  { "id": 81, "name": "Cơm Tấm Bình Tân", "address": "45 Quốc Lộ 1A, Quận Bình Tân", "district": "Binh Tan", "location": { "type": "Point", "coordinates": [106.6050, 10.7800] }, "cuisine": "Vietnamese", "rating": 4.2, "budget": 65000, "description": "Cơm tấm ngon", "image": "" },
  { "id": 82, "name": "Bánh Tráng Trộn Bình Tân", "address": "12 Quốc Lộ 1A, Quận Bình Tân", "district": "Binh Tan", "location": { "type": "Point", "coordinates": [106.6025, 10.7785] }, "cuisine": "Street Food", "rating": 4.1, "budget": 40000, "description": "Bánh tráng trộn", "image": "" },
  { "id": 83, "name": "Lẩu Bò Bình Tân", "address": "89 Quốc Lộ 1A, Quận Bình Tân", "district": "Binh Tan", "location": { "type": "Point", "coordinates": [106.6075, 10.7815] }, "cuisine": "Hotpot & BBQ", "rating": 4.0, "budget": 240000, "description": "Lẩu bò", "image": "" },
  { "id": 84, "name": "Cà Phê Sữa Đá Bình Tân", "address": "150 Quốc Lộ 1A, Quận Bình Tân", "district": "Binh Tan", "location": { "type": "Point", "coordinates": [106.6000, 10.7770] }, "cuisine": "Drinks", "rating": 4.1, "budget": 55000, "description": "Cà phê truyền thống", "image": "" },
  { "id": 85, "name": "Bánh Mì Ăn Sáng Bình Tân", "address": "23 Quốc Lộ 1A, Quận Bình Tân", "district": "Binh Tan", "location": { "type": "Point", "coordinates": [106.6035, 10.7795] }, "cuisine": "Breakfast", "rating": 4.3, "budget": 45000, "description": "Bánh mì nóng giòn", "image": "" }
]