[
  {
    "id": 1,
    "name": "Phở Hòa Pasteur",
    "address": "123 Pasteur, Quận 1",
    "district": "District 1",
    "location": {
      "type": "Point",
      "coordinates": [
        106.6993,
        10.7765
      ]
    },
    "cuisine": "Vietnamese",
    "rating": 4.6,
    "budget": 80000,
    "description": "Quán phở bò nổi tiếng",
    "image": "https://images.unsplash.com/photo-1555126634-323283e090fa?auto=format&fit=crop&w=1200&q=80"
  },
  {
    "id": 2,
    "name": "Bánh Mì Phượng",
    "address": "65 Nguyễn Trãi, Quận 1",
    "district": "District 1",
    "location": {
      "type": "Point",
      "coordinates": [
        106.6938,
        10.7721
      ]
    },
    "cuisine": "Street Food",
    "rating": 4.4,
    "budget": 60000,
    "description": "Bánh mì thịt nướng ngon",
    "image": "https://images.unsplash.com/photo-1555939594-58d7cb561ad1?auto=format&fit=crop&w=1200&q=80"
  },
  {
    "id": 3,
    "name": "Highlands Coffee Nguyễn Huệ",
    "address": "35 Nguyễn Huệ, Quận 1",
    "district": "District 1",
    "location": {
      "type": "Point",
      "coordinates": [
        106.7045,
        10.7738
      ]
    },
    "cuisine": "Drinks",
    "rating": 4,
    "budget": 90000,
    "description": "Chuỗi cà phê lớn",
    "image": "https://images.unsplash.com/photo-1495474472287-4d71bcdd2085?auto=format&fit=crop&w=1200&q=80"
  },
  {
    "id": 4,
    "name": "Lẩu Bò Tứ Xuyên",
    "address": "102 Lê Văn Sỹ, Quận 1",
    "district": "District 1",
    "location": {
      "type": "Point",
      "coordinates": [
        106.6798,
        10.7814
      ]
    },
    "cuisine": "Hotpot & BBQ",
    "rating": 4.3,
    "budget": 280000,
    "description": "Lẩu bò cay nồng",
    "image": "https://images.unsplash.com/photo-1600891964092-4316c288032e?auto=format&fit=crop&w=1200&q=80"
  },
  {
    "id": 5,
    "name": "KFC Nguyễn Trãi",
    "address": "178 Nguyễn Trãi, Quận 1",
    "district": "District 1",
    "location": {
      "type": "Point",
      "coordinates": [
        106.692,
        10.7705
      ]
    },
    "cuisine": "Fastfood",
    "rating": 3.8,
    "budget": 120000,
    "description": "Fastfood nổi tiếng",
    "image": "https://images.unsplash.com/photo-1562967914-608f82629710?auto=format&fit=crop&w=1200&q=80"
  },
  {
    "id": 6,
    "name": "Cơm Tấm Sài Gòn",
    "address": "45 Nguyễn Thị Định, Quận 2",
    "district": "District 2",
    "location": {
      "type": "Point",
      "coordinates": [
        106.742,
        10.789
      ]
    },
    "cuisine": "Vietnamese",
    "rating": 4.2,
    "budget": 70000,
    "description": "Cơm tấm ngon",
    "image": "https://images.unsplash.com/photo-1504674900247-0877df9cc836?auto=format&fit=crop&w=1200&q=80"
  },
  {
    "id": 7,
    "name": "Bánh Tráng Trộn Thủ Đức",
    "address": "12 Võ Văn Tần, Quận 2",
    "district": "District 2",
    "location": {
      "type": "Point",
      "coordinates": [
        106.7385,
        10.7855
      ]
    },
    "cuisine": "Street Food",
    "rating": 4.1,
    "budget": 45000,
    "description": "Bánh tráng trộn nổi tiếng",
    "image": "https://images.unsplash.com/photo-1504674900247-0877df9cc836?auto=format&fit=crop&w=1200&q=80"
  },
  {
    "id": 8,
    "name": "Lẩu Thái Lan Quận 2",
    "address": "89 Nguyễn Thị Định, Quận 2",
    "district": "District 2",
    "location": {
      "type": "Point",
      "coordinates": [
        106.745,
        10.792
      ]
    },
    "cuisine": "Hotpot & BBQ",
    "rating": 4,
    "budget": 250000,
    "description": "Lẩu Thái chua cay",
    "image": "https://images.unsplash.com/photo-1529692236671-f1f6cf9683ba?auto=format&fit=crop&w=1200&q=80"
  },
  {
    "id": 9,
    "name": "The Coffee House Quận 2",
    "address": "56 Võ Văn Tần, Quận 2",
    "district": "District 2",
    "location": {
      "type": "Point",
      "coordinates": [
        106.74,
        10.787
      ]
    },
    "cuisine": "Drinks",
    "rating": 4.1,
    "budget": 85000,
    "description": "Cà phê hiện đại",
    "image": "https://images.unsplash.com/photo-1495474472287-4d71bcdd2085?auto=format&fit=crop&w=1200&q=80"
  },
  {
    "id": 10,
    "name": "Bánh Mì Ăn Sáng Quận 2",
    "address": "23 Nguyễn Thị Định, Quận 2",
    "district": "District 2",
    "location": {
      "type": "Point",
      "coordinates": [
        106.7435,
        10.7905
      ]
    },
    "cuisine": "Breakfast",
    "rating": 4.3,
    "budget": 50000,
    "description": "Bánh mì nóng buổi sáng",
    "image": "https://images.unsplash.com/photo-1493770348161-369560ae357d?auto=format&fit=crop&w=1200&q=80"
  },
  {
    "id": 11,
    "name": "Bún Chả Hương Liên",
    "address": "24 Lê Văn Sỹ, Quận 3",
    "district": "District 3",
    "location": {
      "type": "Point",
      "coordinates": [
        106.6789,
        10.7821
      ]
    },
    "cuisine": "Vietnamese",
    "rating": 4.7,
    "budget": 100000,
    "description": "Bún chả nổi tiếng",
    "image": "https://images.unsplash.com/photo-1551218808-94e220e084d2?auto=format&fit=crop&w=1200&q=80"
  },
  {
    "id": 12,
    "name": "Cơm Tấm Kiều Giang",
    "address": "268 Nguyễn Thị Minh Khai, Quận 3",
    "district": "District 3",
    "location": {
      "type": "Point",
      "coordinates": [
        106.6832,
        10.7795
      ]
    },
    "cuisine": "Street Food",
    "rating": 4.4,
    "budget": 70000,
    "description": "Cơm tấm ngon",
    "image": "https://images.unsplash.com/photo-1567620905732-2d1ec7ab7445?auto=format&fit=crop&w=1200&q=80"
  },
  {
    "id": 13,
    "name": "Lẩu Hải Sản Biển Đông",
    "address": "56 Nguyễn Thị Minh Khai, Quận 3",
    "district": "District 3",
    "location": {
      "type": "Point",
      "coordinates": [
        106.6841,
        10.7792
      ]
    },
    "cuisine": "Seafood",
    "rating": 4.2,
    "budget": 350000,
    "description": "Lẩu hải sản tươi",
    "image": "https://images.unsplash.com/photo-1559737558-2f5a35f4523b?auto=format&fit=crop&w=1200&q=80"
  },
  {
    "id": 14,
    "name": "The Coffee House Quận 3",
    "address": "191 Nguyễn Thị Minh Khai, Quận 3",
    "district": "District 3",
    "location": {
      "type": "Point",
      "coordinates": [
        106.6921,
        10.7754
      ]
    },
    "cuisine": "Drinks",
    "rating": 4.1,
    "budget": 80000,
    "description": "Cà phê hiện đại",
    "image": "https://images.unsplash.com/photo-1511920170033-f8396924c348?auto=format&fit=crop&w=1200&q=80"
  },
  {
    "id": 15,
    "name": "McDonald's Lê Văn Sỹ",
    "address": "45 Lê Văn Sỹ, Quận 3",
    "district": "District 3",
    "location": {
      "type": "Point",
      "coordinates": [
        106.6775,
        10.7835
      ]
    },
    "cuisine": "Fastfood",
    "rating": 3.9,
    "budget": 130000,
    "description": "Fastfood quốc tế",
    "image": "https://images.unsplash.com/photo-1550547660-d9450f859349?auto=format&fit=crop&w=1200&q=80"
  },
  {
    "id": 16,
    "name": "Hủ Tiếu Nam Vang Quận 4",
    "address": "85 Nguyễn Tất Thành, Quận 4",
    "district": "District 4",
    "location": {
      "type": "Point",
      "coordinates": [
        106.705,
        10.76
      ]
    },
    "cuisine": "Vietnamese",
    "rating": 4.3,
    "budget": 65000,
    "description": "Hủ tiếu Nam Vang",
    "image": "https://images.unsplash.com/photo-1627308595229-7830a5c91f9f?auto=format&fit=crop&w=1200&q=80"
  },
  {
    "id": 17,
    "name": "Bánh Mì Hội An Quận 4",
    "address": "12 Tôn Đản, Quận 4",
    "district": "District 4",
    "location": {
      "type": "Point",
      "coordinates": [
        106.702,
        10.7585
      ]
    },
    "cuisine": "Street Food",
    "rating": 4.2,
    "budget": 48000,
    "description": "Bánh mì ngon",
    "image": "https://images.unsplash.com/photo-1565299507177-b0ac66763828?auto=format&fit=crop&w=1200&q=80"
  },
  {
    "id": 18,
    "name": "Lẩu Bò Quận 4",
    "address": "56 Tôn Đản, Quận 4",
    "district": "District 4",
    "location": {
      "type": "Point",
      "coordinates": [
        106.708,
        10.762
      ]
    },
    "cuisine": "Hotpot & BBQ",
    "rating": 4,
    "budget": 240000,
    "description": "Lẩu bò",
    "image": "https://images.unsplash.com/photo-1559847844-5315695dadae?auto=format&fit=crop&w=1200&q=80"
  },
  {
    "id": 19,
    "name": "Cà Phê Sữa Đá Quận 4",
    "address": "89 Tôn Đản, Quận 4",
    "district": "District 4",
    "location": {
      "type": "Point",
      "coordinates": [
        106.7045,
        10.7595
      ]
    },
    "cuisine": "Drinks",
    "rating": 4.1,
    "budget": 55000,
    "description": "Cà phê truyền thống",
    "image": "https://images.unsplash.com/photo-1509042239860-f550ce710b93?auto=format&fit=crop&w=1200&q=80"
  },
  {
    "id": 20,
    "name": "Bánh Mì Ăn Sáng Quận 4",
    "address": "23 Tôn Đản, Quận 4",
    "district": "District 4",
    "location": {
      "type": "Point",
      "coordinates": [
        106.701,
        10.7575
      ]
    },
    "cuisine": "Breakfast",
    "rating": 4.3,
    "budget": 45000,
    "description": "Bánh mì buổi sáng",
    "image": "https://images.unsplash.com/photo-1484723091739-30a097e8f929?auto=format&fit=crop&w=1200&q=80"
  },
  {
    "id": 21,
    "name": "Phở Quỳnh Quận 5",
    "address": "310 Nguyễn Trãi, Quận 5",
    "district": "District 5",
    "location": {
      "type": "Point",
      "coordinates": [
        106.67,
        10.755
      ]
    },
    "cuisine": "Vietnamese",
    "rating": 4.5,
    "budget": 75000,
    "description": "Phở lâu đời",
    "image": "https://images.unsplash.com/photo-1525755662778-989d0524087e?auto=format&fit=crop&w=1200&q=80"
  },
  {
    "id": 22,
    "name": "Bánh Tráng Trộn Quận 5",
    "address": "45 Bùi Thị Xuân, Quận 5",
    "district": "District 5",
    "location": {
      "type": "Point",
      "coordinates": [
        106.6725,
        10.757
      ]
    },
    "cuisine": "Street Food",
    "rating": 4.2,
    "budget": 40000,
    "description": "Bánh tráng trộn",
    "image": "https://images.unsplash.com/photo-1540189549336-e6e99c3679fe?auto=format&fit=crop&w=1200&q=80"
  },
  {
    "id": 23,
    "name": "Lẩu Thái Quận 5",
    "address": "89 Bùi Thị Xuân, Quận 5",
    "district": "District 5",
    "location": {
      "type": "Point",
      "coordinates": [
        106.675,
        10.759
      ]
    },
    "cuisine": "Hotpot & BBQ",
    "rating": 4.1,
    "budget": 250000,
    "description": "Lẩu Thái",
    "image": "https://images.unsplash.com/photo-1543353071-873f17a7a088?auto=format&fit=crop&w=1200&q=80"
  },
  {
    "id": 24,
    "name": "Highlands Coffee Quận 5",
    "address": "150 Bùi Thị Xuân, Quận 5",
    "district": "District 5",
    "location": {
      "type": "Point",
      "coordinates": [
        106.668,
        10.754
      ]
    },
    "cuisine": "Drinks",
    "rating": 4,
    "budget": 85000,
    "description": "Cà phê lớn",
    "image": "https://images.unsplash.com/photo-1554118811-1e0d58224f24?auto=format&fit=crop&w=1200&q=80"
  },
  {
    "id": 25,
    "name": "Bánh Mì Ăn Sáng Quận 5",
    "address": "22 Bùi Thị Xuân, Quận 5",
    "district": "District 5",
    "location": {
      "type": "Point",
      "coordinates": [
        106.671,
        10.756
      ]
    },
    "cuisine": "Breakfast",
    "rating": 4.3,
    "budget": 48000,
    "description": "Bánh mì nóng",
    "image": "https://images.unsplash.com/photo-1533089860892-a7c6f0a88666?auto=format&fit=crop&w=1200&q=80"
  },
  {
    "id": 26,
    "name": "Hủ Tiếu Nam Vang Quận 6",
    "address": "85 Hậu Giang, Quận 6",
    "district": "District 6",
    "location": {
      "type": "Point",
      "coordinates": [
        106.635,
        10.745
      ]
    },
    "cuisine": "Vietnamese",
    "rating": 4.3,
    "budget": 65000,
    "description": "Hủ tiếu Nam Vang",
    "image": "https://images.unsplash.com/photo-1569718212165-3a8278d5f624?auto=format&fit=crop&w=1200&q=80"
  },
  {
    "id": 27,
    "name": "Bánh Mì Hội An Quận 6",
    "address": "12 Hậu Giang, Quận 6",
    "district": "District 6",
    "location": {
      "type": "Point",
      "coordinates": [
        106.6375,
        10.747
      ]
    },
    "cuisine": "Street Food",
    "rating": 4.2,
    "budget": 48000,
    "description": "Bánh mì ngon",
    "image": "https://images.unsplash.com/photo-1529042410759-befb1204b468?auto=format&fit=crop&w=1200&q=80"
  },
  {
    "id": 28,
    "name": "Lẩu Bò Quận 6",
    "address": "56 Hậu Giang, Quận 6",
    "district": "District 6",
    "location": {
      "type": "Point",
      "coordinates": [
        106.64,
        10.749
      ]
    },
    "cuisine": "Hotpot & BBQ",
    "rating": 4,
    "budget": 240000,
    "description": "Lẩu bò",
    "image": "https://images.unsplash.com/photo-1600891964092-4316c288032e?auto=format&fit=crop&w=1200&q=80"
  },
  {
    "id": 29,
    "name": "Cà Phê Sữa Đá Quận 6",
    "address": "89 Hậu Giang, Quận 6",
    "district": "District 6",
    "location": {
      "type": "Point",
      "coordinates": [
        106.633,
        10.744
      ]
    },
    "cuisine": "Drinks",
    "rating": 4.1,
    "budget": 55000,
    "description": "Cà phê truyền thống",
    "image": "https://images.unsplash.com/photo-1501339847302-ac426a4a7cbb?auto=format&fit=crop&w=1200&q=80"
  },
  {
    "id": 30,
    "name": "Bánh Mì Ăn Sáng Quận 6",
    "address": "23 Hậu Giang, Quận 6",
    "district": "District 6",
    "location": {
      "type": "Point",
      "coordinates": [
        106.636,
        10.746
      ]
    },
    "cuisine": "Breakfast",
    "rating": 4.3,
    "budget": 45000,
    "description": "Bánh mì buổi sáng",
    "image": "https://images.unsplash.com/photo-1513442542250-854d436a73f2?auto=format&fit=crop&w=1200&q=80"
  },
  {
    "id": 31,
    "name": "Cơm Tấm Quận 7",
    "address": "45 Nguyễn Thị Thập, Quận 7",
    "district": "District 7",
    "location": {
      "type": "Point",
      "coordinates": [
        106.72,
        10.73
      ]
    },
    "cuisine": "Vietnamese",
    "rating": 4.2,
    "budget": 70000,
    "description": "Cơm tấm ngon",
    "image": "https://images.unsplash.com/photo-1555126634-323283e090fa?auto=format&fit=crop&w=1200&q=80"
  },
  {
    "id": 32,
    "name": "Bánh Tráng Trộn Quận 7",
    "address": "12 Nguyễn Thị Thập, Quận 7",
    "district": "District 7",
    "location": {
      "type": "Point",
      "coordinates": [
        106.7175,
        10.7285
      ]
    },
    "cuisine": "Street Food",
    "rating": 4.1,
    "budget": 45000,
    "description": "Bánh tráng trộn",
    "image": "https://images.unsplash.com/photo-1555939594-58d7cb561ad1?auto=format&fit=crop&w=1200&q=80"
  },
  {
    "id": 33,
    "name": "Lẩu Thái Quận 7",
    "address": "89 Nguyễn Thị Thập, Quận 7",
    "district": "District 7",
    "location": {
      "type": "Point",
      "coordinates": [
        106.7225,
        10.7315
      ]
    },
    "cuisine": "Hotpot & BBQ",
    "rating": 4,
    "budget": 250000,
    "description": "Lẩu Thái",
    "image": "https://images.unsplash.com/photo-1544025162-d76694265947?auto=format&fit=crop&w=1200&q=80"
  },
  {
    "id": 34,
    "name": "The Coffee House Quận 7",
    "address": "56 Nguyễn Thị Thập, Quận 7",
    "district": "District 7",
    "location": {
      "type": "Point",
      "coordinates": [
        106.7185,
        10.7295
      ]
    },
    "cuisine": "Drinks",
    "rating": 4.1,
    "budget": 85000,
    "description": "Cà phê hiện đại",
    "image": "https://images.unsplash.com/photo-1442512595331-e89e73853f31?auto=format&fit=crop&w=1200&q=80"
  },
  {
    "id": 35,
    "name": "Bánh Mì Ăn Sáng Quận 7",
    "address": "23 Nguyễn Thị Thập, Quận 7",
    "district": "District 7",
    "location": {
      "type": "Point",
      "coordinates": [
        106.716,
        10.7275
      ]
    },
    "cuisine": "Breakfast",
    "rating": 4.3,
    "budget": 50000,
    "description": "Bánh mì nóng",
    "image": "https://images.unsplash.com/photo-1528207776546-365bb710ee93?auto=format&fit=crop&w=1200&q=80"
  },
  {
    "id": 36,
    "name": "Phở Quỳnh Quận 8",
    "address": "310 Nguyễn Văn Linh, Quận 8",
    "district": "District 8",
    "location": {
      "type": "Point",
      "coordinates": [
        106.665,
        10.74
      ]
    },
    "cuisine": "Vietnamese",
    "rating": 4.4,
    "budget": 70000,
    "description": "Phở lâu đời",
    "image": "https://images.unsplash.com/photo-1504674900247-0877df9cc836?auto=format&fit=crop&w=1200&q=80"
  },
  {
    "id": 37,
    "name": "Bánh Mì Hội An Quận 8",
    "address": "45 Nguyễn Văn Linh, Quận 8",
    "district": "District 8",
    "location": {
      "type": "Point",
      "coordinates": [
        106.6675,
        10.742
      ]
    },
    "cuisine": "Street Food",
    "rating": 4.2,
    "budget": 48000,
    "description": "Bánh mì ngon",
    "image": "https://images.unsplash.com/photo-1504674900247-0877df9cc836?auto=format&fit=crop&w=1200&q=80"
  },
  {
    "id": 38,
    "name": "Lẩu Bò Quận 8",
    "address": "89 Nguyễn Văn Linh, Quận 8",
    "district": "District 8",
    "location": {
      "type": "Point",
      "coordinates": [
        106.67,
        10.744
      ]
    },
    "cuisine": "Hotpot & BBQ",
    "rating": 4,
    "budget": 240000,
    "description": "Lẩu bò",
    "image": "https://images.unsplash.com/photo-1529692236671-f1f6cf9683ba?auto=format&fit=crop&w=1200&q=80"
  },
  {
    "id": 39,
    "name": "Cà Phê Sữa Đá Quận 8",
    "address": "12 Nguyễn Văn Linh, Quận 8",
    "district": "District 8",
    "location": {
      "type": "Point",
      "coordinates": [
        106.663,
        10.739
      ]
    },
    "cuisine": "Drinks",
    "rating": 4.1,
    "budget": 55000,
    "description": "Cà phê truyền thống",
    "image": "https://images.unsplash.com/photo-1495474472287-4d71bcdd2085?auto=format&fit=crop&w=1200&q=80"
  },
  {
    "id": 40,
    "name": "Bánh Mì Ăn Sáng Quận 8",
    "address": "56 Nguyễn Văn Linh, Quận 8",
    "district": "District 8",
    "location": {
      "type": "Point",
      "coordinates": [
        106.6685,
        10.743
      ]
    },
    "cuisine": "Breakfast",
    "rating": 4.3,
    "budget": 45000,
    "description": "Bánh mì buổi sáng",
    "image": "https://images.unsplash.com/photo-1493770348161-369560ae357d?auto=format&fit=crop&w=1200&q=80"
  },
  {
    "id": 41,
    "name": "Bún Bò Huế Quận 10",
    "address": "45 Sư Vạn Hạnh, Quận 10",
    "district": "District 10",
    "location": {
      "type": "Point",
      "coordinates": [
        106.665,
        10.77
      ]
    },
    "cuisine": "Vietnamese",
    "rating": 4.3,
    "budget": 80000,
    "description": "Bún bò Huế chuẩn",
    "image": "https://images.unsplash.com/photo-1551218808-94e220e084d2?auto=format&fit=crop&w=1200&q=80"
  },
  {
    "id": 42,
    "name": "Bánh Tráng Trộn Quận 10",
    "address": "12 Sư Vạn Hạnh, Quận 10",
    "district": "District 10",
    "location": {
      "type": "Point",
      "coordinates": [
        106.6625,
        10.7685
      ]
    },
    "cuisine": "Street Food",
    "rating": 4.2,
    "budget": 45000,
    "description": "Bánh tráng trộn",
    "image": "https://images.unsplash.com/photo-1567620905732-2d1ec7ab7445?auto=format&fit=crop&w=1200&q=80"
  },
  {
    "id": 43,
    "name": "Lẩu Thái Quận 10",
    "address": "89 Sư Vạn Hạnh, Quận 10",
    "district": "District 10",
    "location": {
      "type": "Point",
      "coordinates": [
        106.6675,
        10.7715
      ]
    },
    "cuisine": "Hotpot & BBQ",
    "rating": 4,
    "budget": 250000,
    "description": "Lẩu Thái",
    "image": "https://images.unsplash.com/photo-1555939594-58d7cb561ad1?auto=format&fit=crop&w=1200&q=80"
  },
  {
    "id": 44,
    "name": "Highlands Coffee Quận 10",
    "address": "150 Sư Vạn Hạnh, Quận 10",
    "district": "District 10",
    "location": {
      "type": "Point",
      "coordinates": [
        106.66,
        10.767
      ]
    },
    "cuisine": "Drinks",
    "rating": 4.1,
    "budget": 85000,
    "description": "Cà phê lớn",
    "image": "https://images.unsplash.com/photo-1511920170033-f8396924c348?auto=format&fit=crop&w=1200&q=80"
  },
  {
    "id": 45,
    "name": "Bánh Mì Ăn Sáng Quận 10",
    "address": "23 Sư Vạn Hạnh, Quận 10",
    "district": "District 10",
    "location": {
      "type": "Point",
      "coordinates": [
        106.6635,
        10.769
      ]
    },
    "cuisine": "Breakfast",
    "rating": 4.3,
    "budget": 50000,
    "description": "Bánh mì nóng",
    "image": "https://images.unsplash.com/photo-1525351484163-7529414344d8?auto=format&fit=crop&w=1200&q=80"
  },
  {
    "id": 46,
    "name": "Phở Quỳnh Quận 11",
    "address": "310 Lạc Long Quân, Quận 11",
    "district": "District 11",
    "location": {
      "type": "Point",
      "coordinates": [
        106.645,
        10.765
      ]
    },
    "cuisine": "Vietnamese",
    "rating": 4.4,
    "budget": 70000,
    "description": "Phở lâu đời",
    "image": "https://images.unsplash.com/photo-1627308595229-7830a5c91f9f?auto=format&fit=crop&w=1200&q=80"
  },
  {
    "id": 47,
    "name": "Bánh Mì Hội An Quận 11",
    "address": "45 Lạc Long Quân, Quận 11",
    "district": "District 11",
    "location": {
      "type": "Point",
      "coordinates": [
        106.6475,
        10.767
      ]
    },
    "cuisine": "Street Food",
    "rating": 4.2,
    "budget": 48000,
    "description": "Bánh mì ngon",
    "image": "https://images.unsplash.com/photo-1565299507177-b0ac66763828?auto=format&fit=crop&w=1200&q=80"
  },
  {
    "id": 48,
    "name": "Lẩu Bò Quận 11",
    "address": "89 Lạc Long Quân, Quận 11",
    "district": "District 11",
    "location": {
      "type": "Point",
      "coordinates": [
        106.65,
        10.769
      ]
    },
    "cuisine": "Hotpot & BBQ",
    "rating": 4,
    "budget": 240000,
    "description": "Lẩu bò",
    "image": "https://images.unsplash.com/photo-1559847844-5315695dadae?auto=format&fit=crop&w=1200&q=80"
  },
  {
    "id": 49,
    "name": "Cà Phê Sữa Đá Quận 11",
    "address": "12 Lạc Long Quân, Quận 11",
    "district": "District 11",
    "location": {
      "type": "Point",
      "coordinates": [
        106.643,
        10.764
      ]
    },
    "cuisine": "Drinks",
    "rating": 4.1,
    "budget": 55000,
    "description": "Cà phê truyền thống",
    "image": "https://images.unsplash.com/photo-1509042239860-f550ce710b93?auto=format&fit=crop&w=1200&q=80"
  },
  {
    "id": 50,
    "name": "Bánh Mì Ăn Sáng Quận 11",
    "address": "56 Lạc Long Quân, Quận 11",
    "district": "District 11",
    "location": {
      "type": "Point",
      "coordinates": [
        106.6485,
        10.768
      ]
    },
    "cuisine": "Breakfast",
    "rating": 4.3,
    "budget": 45000,
    "description": "Bánh mì buổi sáng",
    "image": "https://images.unsplash.com/photo-1484723091739-30a097e8f929?auto=format&fit=crop&w=1200&q=80"
  },
  {
    "id": 51,
    "name": "Cơm Tấm Quận 12",
    "address": "45 Quốc Lộ 1A, Quận 12",
    "district": "District 12",
    "location": {
      "type": "Point",
      "coordinates": [
        106.625,
        10.85
      ]
    },
    "cuisine": "Vietnamese",
    "rating": 4.2,
    "budget": 65000,
    "description": "Cơm tấm ngon",
    "image": "https://images.unsplash.com/photo-1525755662778-989d0524087e?auto=format&fit=crop&w=1200&q=80"
  },
  {
    "id": 52,
    "name": "Bánh Tráng Trộn Quận 12",
    "address": "12 Quốc Lộ 1A, Quận 12",
    "district": "District 12",
    "location": {
      "type": "Point",
      "coordinates": [
        106.6225,
        10.8485
      ]
    },
    "cuisine": "Street Food",
    "rating": 4.1,
    "budget": 40000,
    "description": "Bánh tráng trộn",
    "image": "https://images.unsplash.com/photo-1540189549336-e6e99c3679fe?auto=format&fit=crop&w=1200&q=80"
  },
  {
    "id": 53,
    "name": "Lẩu Thái Quận 12",
    "address": "89 Quốc Lộ 1A, Quận 12",
    "district": "District 12",
    "location": {
      "type": "Point",
      "coordinates": [
        106.6275,
        10.8515
      ]
    },
    "cuisine": "Hotpot & BBQ",
    "rating": 4,
    "budget": 240000,
    "description": "Lẩu Thái",
    "image": "https://images.unsplash.com/photo-1543353071-873f17a7a088?auto=format&fit=crop&w=1200&q=80"
  },
  {
    "id": 54,
    "name": "Highlands Coffee Quận 12",
    "address": "150 Quốc Lộ 1A, Quận 12",
    "district": "District 12",
    "location": {
      "type": "Point",
      "coordinates": [
        106.62,
        10.847
      ]
    },
    "cuisine": "Drinks",
    "rating": 4.1,
    "budget": 80000,
    "description": "Cà phê lớn",
    "image": "https://images.unsplash.com/photo-1554118811-1e0d58224f24?auto=format&fit=crop&w=1200&q=80"
  },
  {
    "id": 55,
    "name": "Bánh Mì Ăn Sáng Quận 12",
    "address": "23 Quốc Lộ 1A, Quận 12",
    "district": "District 12",
    "location": {
      "type": "Point",
      "coordinates": [
        106.6235,
        10.849
      ]
    },
    "cuisine": "Breakfast",
    "rating": 4.3,
    "budget": 45000,
    "description": "Bánh mì nóng",
    "image": "https://images.unsplash.com/photo-1533089860892-a7c6f0a88666?auto=format&fit=crop&w=1200&q=80"
  },
  {
    "id": 56,
    "name": "Cà Phê Sữa Đá Bình Thạnh",
    "address": "156 Xô Viết Nghệ Tĩnh, Quận Bình Thạnh",
    "district": "Binh Thanh",
    "location": {
      "type": "Point",
      "coordinates": [
        106.7125,
        10.8023
      ]
    },
    "cuisine": "Drinks",
    "rating": 4.2,
    "budget": 60000,
    "description": "Cà phê view đẹp",
    "image": "https://images.unsplash.com/photo-1511920170033-f8396924c348?auto=format&fit=crop&w=1200&q=80"
  },
  {
    "id": 57,
    "name": "Bánh Xèo Út Tuyền",
    "address": "12 Nguyễn Cảnh Chân, Quận Bình Thạnh",
    "district": "Binh Thanh",
    "location": {
      "type": "Point",
      "coordinates": [
        106.6972,
        10.7685
      ]
    },
    "cuisine": "Street Food",
    "rating": 4.5,
    "budget": 70000,
    "description": "Bánh xèo giòn ngon",
    "image": "https://images.unsplash.com/photo-1529042410759-befb1204b468?auto=format&fit=crop&w=1200&q=80"
  },
  {
    "id": 58,
    "name": "Quán Ốc Đêm Sài Gòn",
    "address": "28 Nguyễn Đình Chiểu, Quận Bình Thạnh",
    "district": "Binh Thanh",
    "location": {
      "type": "Point",
      "coordinates": [
        106.6819,
        10.7775
      ]
    },
    "cuisine": "Seafood",
    "rating": 4.4,
    "budget": 200000,
    "description": "Ốc và hải sản tươi",
    "image": "https://images.unsplash.com/photo-1559737558-2f5a35f4523b?auto=format&fit=crop&w=1200&q=80"
  },
  {
    "id": 59,
    "name": "Bún Bò Huế O Trang",
    "address": "89 Xô Viết Nghệ Tĩnh, Quận Bình Thạnh",
    "district": "Binh Thanh",
    "location": {
      "type": "Point",
      "coordinates": [
        106.715,
        10.8055
      ]
    },
    "cuisine": "Vietnamese",
    "rating": 4.3,
    "budget": 85000,
    "description": "Bún bò Huế chuẩn",
    "image": "https://images.unsplash.com/photo-1551218808-94e220e084d2?auto=format&fit=crop&w=1200&q=80"
  },
  {
    "id": 60,
    "name": "Bánh Mì Ăn Sáng Bình Thạnh",
    "address": "45 Nguyễn Xiển, Quận Bình Thạnh",
    "district": "Binh Thanh",
    "location": {
      "type": "Point",
      "coordinates": [
        106.7088,
        10.7985
      ]
    },
    "cuisine": "Breakfast",
    "rating": 4.1,
    "budget": 45000,
    "description": "Bánh mì nóng giòn",
    "image": "https://images.unsplash.com/photo-1513442542250-854d436a73f2?auto=format&fit=crop&w=1200&q=80"
  },
  {
    "id": 61,
    "name": "Bún Bò Nam Bộ",
    "address": "45 Phan Xích Long, Quận Phú Nhuận",
    "district": "Phu Nhuan",
    "location": {
      "type": "Point",
      "coordinates": [
        106.685,
        10.795
      ]
    },
    "cuisine": "Vietnamese",
    "rating": 4.4,
    "budget": 80000,
    "description": "Bún bò Nam Bộ ngon",
    "image": "https://images.unsplash.com/photo-1555126634-323283e090fa?auto=format&fit=crop&w=1200&q=80"
  },
  {
    "id": 62,
    "name": "Ốc Đêm Phú Nhuận",
    "address": "120 Phan Xích Long, Quận Phú Nhuận",
    "district": "Phu Nhuan",
    "location": {
      "type": "Point",
      "coordinates": [
        106.6885,
        10.798
      ]
    },
    "cuisine": "Seafood",
    "rating": 4.1,
    "budget": 180000,
    "description": "Ốc và hải sản tươi",
    "image": "https://images.unsplash.com/photo-1565680018434-b513d5e5fd47?auto=format&fit=crop&w=1200&q=80"
  },
  {
    "id": 63,
    "name": "Cà Phê Sữa Đá 123",
    "address": "89 Phan Đình Phùng, Quận Phú Nhuận",
    "district": "Phu Nhuan",
    "location": {
      "type": "Point",
      "coordinates": [
        106.682,
        10.7925
      ]
    },
    "cuisine": "Drinks",
    "rating": 4,
    "budget": 55000,
    "description": "Quán cà phê truyền thống",
    "image": "https://images.unsplash.com/photo-1495474472287-4d71bcdd2085?auto=format&fit=crop&w=1200&q=80"
  },
  {
    "id": 64,
    "name": "Lẩu Nướng Hàn Quốc",
    "address": "56 Phan Xích Long, Quận Phú Nhuận",
    "district": "Phu Nhuan",
    "location": {
      "type": "Point",
      "coordinates": [
        106.6865,
        10.7965
      ]
    },
    "cuisine": "Hotpot & BBQ",
    "rating": 4.2,
    "budget": 260000,
    "description": "Lẩu nướng Hàn Quốc",
    "image": "https://images.unsplash.com/photo-1600891964092-4316c288032e?auto=format&fit=crop&w=1200&q=80"
  },
  {
    "id": 65,
    "name": "Bánh Mì Ăn Sáng Phú Nhuận",
    "address": "33 Phan Đình Phùng, Quận Phú Nhuận",
    "district": "Phu Nhuan",
    "location": {
      "type": "Point",
      "coordinates": [
        106.6805,
        10.79
      ]
    },
    "cuisine": "Breakfast",
    "rating": 4.3,
    "budget": 48000,
    "description": "Bánh mì nóng hổi",
    "image": "https://images.unsplash.com/photo-1528207776546-365bb710ee93?auto=format&fit=crop&w=1200&q=80"
  },
  {
    "id": 66,
    "name": "Phở Quỳnh Tân Bình",
    "address": "310 Nguyễn Trãi, Quận Tân Bình",
    "district": "Tan Binh",
    "location": {
      "type": "Point",
      "coordinates": [
        106.6505,
        10.7608
      ]
    },
    "cuisine": "Vietnamese",
    "rating": 4.5,
    "budget": 75000,
    "description": "Phở lâu đời",
    "image": "https://images.unsplash.com/photo-1504674900247-0877df9cc836?auto=format&fit=crop&w=1200&q=80"
  },
  {
    "id": 67,
    "name": "Bánh Tráng Trộn Tân Bình",
    "address": "45 Bùi Thị Xuân, Quận Tân Bình",
    "district": "Tan Binh",
    "location": {
      "type": "Point",
      "coordinates": [
        106.655,
        10.7655
      ]
    },
    "cuisine": "Street Food",
    "rating": 4.2,
    "budget": 40000,
    "description": "Bánh tráng trộn ngon",
    "image": "https://images.unsplash.com/photo-1504674900247-0877df9cc836?auto=format&fit=crop&w=1200&q=80"
  },
  {
    "id": 68,
    "name": "Lẩu Thái Tân Bình",
    "address": "89 Hoàng Văn Thụ, Quận Tân Bình",
    "district": "Tan Binh",
    "location": {
      "type": "Point",
      "coordinates": [
        106.662,
        10.77
      ]
    },
    "cuisine": "Hotpot & BBQ",
    "rating": 4,
    "budget": 250000,
    "description": "Lẩu Thái chua cay",
    "image": "https://images.unsplash.com/photo-1529692236671-f1f6cf9683ba?auto=format&fit=crop&w=1200&q=80"
  },
  {
    "id": 69,
    "name": "Highlands Coffee Tân Bình",
    "address": "150 Hoàng Văn Thụ, Quận Tân Bình",
    "district": "Tan Binh",
    "location": {
      "type": "Point",
      "coordinates": [
        106.6585,
        10.768
      ]
    },
    "cuisine": "Drinks",
    "rating": 4.1,
    "budget": 85000,
    "description": "Chuỗi cà phê lớn",
    "image": "https://images.unsplash.com/photo-1495474472287-4d71bcdd2085?auto=format&fit=crop&w=1200&q=80"
  },
  {
    "id": 70,
    "name": "Bánh Mì Ăn Sáng Tân Bình",
    "address": "22 Bùi Thị Xuân, Quận Tân Bình",
    "district": "Tan Binh",
    "location": {
      "type": "Point",
      "coordinates": [
        106.652,
        10.7625
      ]
    },
    "cuisine": "Breakfast",
    "rating": 4.3,
    "budget": 50000,
    "description": "Bánh mì nóng giòn",
    "image": "https://images.unsplash.com/photo-1493770348161-369560ae357d?auto=format&fit=crop&w=1200&q=80"
  },
  {
    "id": 71,
    "name": "Cơm Tấm Tân Phú",
    "address": "45 Tân Kỳ Tân Quý, Quận Tân Phú",
    "district": "Tan Phu",
    "location": {
      "type": "Point",
      "coordinates": [
        106.625,
        10.785
      ]
    },
    "cuisine": "Vietnamese",
    "rating": 4.2,
    "budget": 65000,
    "description": "Cơm tấm ngon",
    "image": "https://images.unsplash.com/photo-1551218808-94e220e084d2?auto=format&fit=crop&w=1200&q=80"
  },
  {
    "id": 72,
    "name": "Bánh Tráng Trộn Tân Phú",
    "address": "12 Tân Kỳ Tân Quý, Quận Tân Phú",
    "district": "Tan Phu",
    "location": {
      "type": "Point",
      "coordinates": [
        106.6225,
        10.7835
      ]
    },
    "cuisine": "Street Food",
    "rating": 4.1,
    "budget": 40000,
    "description": "Bánh tráng trộn",
    "image": "https://images.unsplash.com/photo-1567620905732-2d1ec7ab7445?auto=format&fit=crop&w=1200&q=80"
  },
  {
    "id": 73,
    "name": "Lẩu Bò Tân Phú",
    "address": "89 Tân Kỳ Tân Quý, Quận Tân Phú",
    "district": "Tan Phu",
    "location": {
      "type": "Point",
      "coordinates": [
        106.6275,
        10.7865
      ]
    },
    "cuisine": "Hotpot & BBQ",
    "rating": 4,
    "budget": 240000,
    "description": "Lẩu bò",
    "image": "https://images.unsplash.com/photo-1555939594-58d7cb561ad1?auto=format&fit=crop&w=1200&q=80"
  },
  {
    "id": 74,
    "name": "Cà Phê Sữa Đá Tân Phú",
    "address": "150 Tân Kỳ Tân Quý, Quận Tân Phú",
    "district": "Tan Phu",
    "location": {
      "type": "Point",
      "coordinates": [
        106.62,
        10.782
      ]
    },
    "cuisine": "Drinks",
    "rating": 4.1,
    "budget": 55000,
    "description": "Cà phê truyền thống",
    "image": "https://images.unsplash.com/photo-1511920170033-f8396924c348?auto=format&fit=crop&w=1200&q=80"
  },
  {
    "id": 75,
    "name": "Bánh Mì Ăn Sáng Tân Phú",
    "address": "23 Tân Kỳ Tân Quý, Quận Tân Phú",
    "district": "Tan Phu",
    "location": {
      "type": "Point",
      "coordinates": [
        106.6235,
        10.7845
      ]
    },
    "cuisine": "Breakfast",
    "rating": 4.3,
    "budget": 45000,
    "description": "Bánh mì nóng",
    "image": "https://images.unsplash.com/photo-1525351484163-7529414344d8?auto=format&fit=crop&w=1200&q=80"
  },
  {
    "id": 76,
    "name": "Lẩu Nướng Gò Vấp",
    "address": "45 Quang Trung, Quận Gò Vấp",
    "district": "Go Vap",
    "location": {
      "type": "Point",
      "coordinates": [
        106.6782,
        10.8321
      ]
    },
    "cuisine": "Hotpot & BBQ",
    "rating": 4.1,
    "budget": 220000,
    "description": "Quán lẩu nướng đông khách",
    "image": "https://images.unsplash.com/photo-1600891964092-4316c288032e?auto=format&fit=crop&w=1200&q=80"
  },
  {
    "id": 77,
    "name": "Cơm Tấm Ba Ghiền",
    "address": "112 Quang Trung, Quận Gò Vấp",
    "district": "Go Vap",
    "location": {
      "type": "Point",
      "coordinates": [
        106.6755,
        10.835
      ]
    },
    "cuisine": "Vietnamese",
    "rating": 4.3,
    "budget": 65000,
    "description": "Cơm tấm ngon, giá rẻ",
    "image": "https://images.unsplash.com/photo-1551218808-94e220e084d2?auto=format&fit=crop&w=1200&q=80"
  },
  {
    "id": 78,
    "name": "Trà Sữa Gong Cha Gò Vấp",
    "address": "78 Quang Trung, Quận Gò Vấp",
    "district": "Go Vap",
    "location": {
      "type": "Point",
      "coordinates": [
        106.6801,
        10.8298
      ]
    },
    "cuisine": "Drinks",
    "rating": 4,
    "budget": 55000,
    "description": "Trà sữa nổi tiếng",
    "image": "https://images.unsplash.com/photo-1554118811-1e0d58224f24?auto=format&fit=crop&w=1200&q=80"
  },
  {
    "id": 79,
    "name": "Bánh Mì Huynh Hoa",
    "address": "26 Nguyễn Oanh, Quận Gò Vấp",
    "district": "Go Vap",
    "location": {
      "type": "Point",
      "coordinates": [
        106.672,
        10.8385
      ]
    },
    "cuisine": "Street Food",
    "rating": 4.6,
    "budget": 50000,
    "description": "Bánh mì nổi tiếng Sài Gòn",
    "image": "https://images.unsplash.com/photo-1504674900247-0877df9cc836?auto=format&fit=crop&w=1200&q=80"
  },
  {
    "id": 80,
    "name": "Pizza Hut Gò Vấp",
    "address": "190 Quang Trung, Quận Gò Vấp",
    "district": "Go Vap",
    "location": {
      "type": "Point",
      "coordinates": [
        106.6835,
        10.825
      ]
    },
    "cuisine": "Fastfood",
    "rating": 3.7,
    "budget": 180000,
    "description": "Pizza phong cách Mỹ",
    "image": "https://images.unsplash.com/photo-1562967914-608f82629710?auto=format&fit=crop&w=1200&q=80"
  },
  {
    "id": 81,
    "name": "Cơm Tấm Bình Tân",
    "address": "45 Quốc Lộ 1A, Quận Bình Tân",
    "district": "Binh Tan",
    "location": {
      "type": "Point",
      "coordinates": [
        106.605,
        10.78
      ]
    },
    "cuisine": "Vietnamese",
    "rating": 4.2,
    "budget": 65000,
    "description": "Cơm tấm ngon",
    "image": "https://images.unsplash.com/photo-1525755662778-989d0524087e?auto=format&fit=crop&w=1200&q=80"
  },
  {
    "id": 82,
    "name": "Bánh Tráng Trộn Bình Tân",
    "address": "12 Quốc Lộ 1A, Quận Bình Tân",
    "district": "Binh Tan",
    "location": {
      "type": "Point",
      "coordinates": [
        106.6025,
        10.7785
      ]
    },
    "cuisine": "Street Food",
    "rating": 4.1,
    "budget": 40000,
    "description": "Bánh tráng trộn",
    "image": "https://images.unsplash.com/photo-1540189549336-e6e99c3679fe?auto=format&fit=crop&w=1200&q=80"
  },
  {
    "id": 83,
    "name": "Lẩu Bò Bình Tân",
    "address": "89 Quốc Lộ 1A, Quận Bình Tân",
    "district": "Binh Tan",
    "location": {
      "type": "Point",
      "coordinates": [
        106.6075,
        10.7815
      ]
    },
    "cuisine": "Hotpot & BBQ",
    "rating": 4,
    "budget": 240000,
    "description": "Lẩu bò",
    "image": "https://images.unsplash.com/photo-1543353071-873f17a7a088?auto=format&fit=crop&w=1200&q=80"
  },
  {
    "id": 84,
    "name": "Cà Phê Sữa Đá Bình Tân",
    "address": "150 Quốc Lộ 1A, Quận Bình Tân",
    "district": "Binh Tan",
    "location": {
      "type": "Point",
      "coordinates": [
        106.6,
        10.777
      ]
    },
    "cuisine": "Drinks",
    "rating": 4.1,
    "budget": 55000,
    "description": "Cà phê truyền thống",
    "image": "https://images.unsplash.com/photo-1554118811-1e0d58224f24?auto=format&fit=crop&w=1200&q=80"
  },
  {
    "id": 85,
    "name": "Bánh Mì Ăn Sáng Bình Tân",
    "address": "23 Quốc Lộ 1A, Quận Bình Tân",
    "district": "Binh Tan",
    "location": {
      "type": "Point",
      "coordinates": [
        106.6035,
        10.7795
      ]
    },
    "cuisine": "Breakfast",
    "rating": 4.3,
    "budget": 45000,
    "description": "Bánh mì nóng giòn",
    "image": "https://images.unsplash.com/photo-1533089860892-a7c6f0a88666?auto=format&fit=crop&w=1200&q=80"
  }
]
